[
  {
    "id": 1,
    "local":"Capela Nossa Senhora da Penha",
    "endereco":"Travessa Joaquim Lopes, s/nº, Bairro Penha",
    "GPS":{
      "lat":-20.715700,
      "long":-46.625920
    },
    "descricao":"",
    "fotos":[]
  },
  {
    "id": 2,
    "local":"Sino centenário da Capela de Nossa Senhora da Penha",
    "endereco":"Travessa Joaquim Lopes, s/nº, Bairro Penha",
    "GPS":{
      "lat":-20.71564229715798,
      "long":-46.62622454392186
    },
    "descricao":"",
    "fotos":[]
  }, {
    "id": 3,
    "local":"Parque Municipal Doutor Emílio Piantino",
    "endereco":"Rua New York, S/Nº, Bairro Jardim Eldorado",
    "GPS":{
      "lat":-20.733720,
      "long":-46.620280
    },
    "descricao":"",
    "fotos":[]
  }, {
    "id": 4,
    "local":"Túmulo número 1",
    "endereco":"Cemitério Municipal de Passos, Avenida JK, nº 633",
    "GPS":{
      "lat":-20.7263602,
      "long":-46.600214
    },
    "descricao":"",
    "fotos":[]
  }, {
    "id": 5,
    "local":"Árvore de Santa Bárbara",
    "endereco":"Praça da Saudade, s/nº",
    "GPS":{
      "lat":20.7242788,
      "long":-46.6021073
    },
    "descricao":"",
    "fotos":[]
  }, {
    "id": 6,
    "local":"Acervo Artístico Professor Wagner de Castro",
    "endereco":" Casa da Cultura, Praça Geraldo da Silva Maia, S/Nº, Centro",
    "GPS":{
      "lat":-20.7216622,
      "long":-46.6091406
    },
    "descricao":"",
    "fotos":[]
  }, {
    "id": 7,
    "local":"Praça Geraldo da Silva Maia",
    "endereco":"Praça Geraldo da Silva Maia, S/Nº, Centro",
    "GPS":{
      "lat":-20.721991295707614, 
      "long":-46.6090174472944
    },
    "descricao":"",
    "fotos":[]
  }, {
    "id": 8,
    "local":"Fonte Luminosa da Praça Geraldo da Silva Maia",
    "endereco":"Praça Geraldo da Silva Maia, S/Nº, Centro.",
    "GPS":{
      "lat":-20.7218538,
      "long":-46.609285
    },
    "descricao":"",
    "fotos":[]
  }, {
    "id": 9,
    "local":"Escola Municipal Professora Francina de Andrade",
    "endereco":"Rua Coronel Neca Medeiros, nº 181, Centro",
    "GPS":{
      "lat":-20.720138688576203, 
      "long":-46.61079863372371
    },
    "descricao":"",
    "fotos":[]
  },
  {
    "id": 10,
    "local":"Fachada da Santa Casa de Misericórdia de Passos",
    "endereco":"Rua Santa Casa, nº 164, Centro",
    "GPS":{
      "lat":-20.7134797,
      "long":-46.6131078
    },
    "descricao":"",
    "fotos":[]
  }
  ,
  {
    "id": 11,
    "local":"Estação Cultura",
    "endereco":"Avenida da Estação, S/Nº, Bairro Coimbras",
    "GPS":{
      "lat":-20.708009,
      "long":-46.6112991
    },
    "descricao":"",
    "fotos":[]
  },
  {
    "id": 12,
    "local":"Banda do 12º Batalhão Militar de Passos",
    "endereco":" Evento - sem local",
    "GPS":{
      "lat":-20.7360466,
      "long":-46.6063709
    },
    "descricao":"",
    "fotos":[]
  }
  ,
  {
    "id": 13,
    "local":"Palácio da Cultura de Passos",
    "endereco":"Praça Geraldo da Silva Maia, s/n, Centro",
    "GPS":{
      "lat":-20.721415897391946, 
      "long":-46.609436969997184
    },
    "descricao":"",
    "fotos":[]
  },
  {
    "id": 14,
    "local":"Festa do Reinado e da Cavalhada",
    "endereco":"-",
    "GPS":{
      "lat":11,
      "long":11
    },
    "descricao":"",
    "fotos":[]
  }

]